[
  {
    "trainNumber": "12002",
    "trainName": "Shatabdi Express",
    "zone": "Northern Railways (NR)",
    "division": "Delhi",
    "source": "New Delhi (NDLS)",
    "sourceCode": "NDLS",
    "destination": "Jaipur City (JP)",
    "destinationCode": "JP",
    "distance": 244,
    "maxSpeed": 160,
    "avgSpeed": 97.6,
    "duration": 150,
    "frequency": "Daily",
    "runDays": [1, 2, 3, 4, 5, 6, 7],
    "departureTime": "06:15",
    "arrivalTime": "10:45",
    "coaches": {"Chair Car": 8, "Exec Chair": 2},
    "stations": [
      {"code": "NDLS", "name": "New Delhi", "lat": 28.6431, "lng": 77.1200, "km": 0, "arrivalTime": "06:15", "departureTime": "06:15", "platform": "16"},
      {"code": "REWARI", "name": "Rewari", "lat": 27.1423, "lng": 77.3231, "km": 55, "arrivalTime": "07:20", "departureTime": "07:25", "platform": "1"},
      {"code": "SAG", "name": "Saidarpur", "lat": 27.5560, "lng": 76.5540, "km": 120, "arrivalTime": "08:30", "departureTime": "08:35", "platform": "2"},
      {"code": "JP", "name": "Jaipur City", "lat": 26.8124, "lng": 75.8262, "km": 244, "arrivalTime": "10:45", "departureTime": "10:45", "platform": "4"}
    ],
    "type": "High-Speed",
    "class": "Chair Car Only",
    "status": "Active"
  },
  {
    "trainNumber": "12015",
    "trainName": "Ajmer Shatabdi",
    "zone": "Northern Railways (NR)",
    "division": "Delhi",
    "source": "New Delhi (NDLS)",
    "sourceCode": "NDLS",
    "destination": "Ajmer Junction (AII)",
    "destinationCode": "AII",
    "distance": 391,
    "maxSpeed": 160,
    "avgSpeed": 95.2,
    "duration": 247,
    "frequency": "Daily",
    "runDays": [1, 2, 3, 4, 5, 6],
    "departureTime": "07:00",
    "arrivalTime": "11:00",
    "coaches": {"Chair Car": 10, "Exec Chair": 2},
    "stations": [
      {"code": "NDLS", "name": "New Delhi", "lat": 28.6431, "lng": 77.1200, "km": 0, "arrivalTime": "07:00", "departureTime": "07:00", "platform": "7"},
      {"code": "JP", "name": "Jaipur City", "lat": 26.8124, "lng": 75.8262, "km": 244, "arrivalTime": "09:05", "departureTime": "09:15", "platform": "3"},
      {"code": "AII", "name": "Ajmer Junction", "lat": 26.4499, "lng": 74.6399, "km": 391, "arrivalTime": "11:00", "departureTime": "11:00", "platform": "2"}
    ],
    "type": "High-Speed",
    "class": "Chair Car Only",
    "status": "Active"
  },
  {
    "trainNumber": "12311",
    "trainName": "Howrah Rajdhani",
    "zone": "Eastern Railways (ER)",
    "division": "Howrah",
    "source": "New Delhi (NDLS)",
    "sourceCode": "NDLS",
    "destination": "Howrah Junction (HWH)",
    "destinationCode": "HWH",
    "distance": 1457,
    "maxSpeed": 130,
    "avgSpeed": 86.1,
    "duration": 1010,
    "frequency": "Tri-weekly",
    "runDays": [1, 3, 5],
    "departureTime": "17:00",
    "arrivalTime": "10:00+1",
    "coaches": {"1A": 1, "2A": 4, "3A": 6, "SL": 4, "UR": 2},
    "stations": [
      {"code": "NDLS", "name": "New Delhi", "lat": 28.6431, "lng": 77.1200, "km": 0, "arrivalTime": "17:00", "departureTime": "17:00", "platform": "1"},
      {"code": "DLI", "name": "Delhi", "lat": 28.6087, "lng": 77.2510, "km": 13, "arrivalTime": "17:20", "departureTime": "17:25", "platform": "1"},
      {"code": "MTJ", "name": "Mathura Junction", "lat": 27.4924, "lng": 77.6737, "km": 58, "arrivalTime": "18:20", "departureTime": "18:30", "platform": "3"},
      {"code": "ALD", "name": "Allahabad", "lat": 25.4268, "lng": 81.8469, "km": 460, "arrivalTime": "00:45", "departureTime": "01:00", "platform": "2"},
      {"code": "PNBE", "name": "Patna Junction", "lat": 25.5941, "lng": 85.1376, "km": 985, "arrivalTime": "07:15", "departureTime": "07:30", "platform": "1"},
      {"code": "HWH", "name": "Howrah Junction", "lat": 22.5958, "lng": 88.3084, "km": 1457, "arrivalTime": "10:00", "departureTime": "10:00", "platform": "3"}
    ],
    "type": "Rajdhani",
    "class": "All Classes",
    "status": "Active"
  },
  {
    "trainNumber": "12301",
    "trainName": "Howrah Rajdhani",
    "zone": "Eastern Railways (ER)",
    "division": "Howrah",
    "source": "New Delhi (NDLS)",
    "sourceCode": "NDLS",
    "destination": "Howrah Junction (HWH)",
    "destinationCode": "HWH",
    "distance": 1457,
    "maxSpeed": 130,
    "avgSpeed": 85.0,
    "duration": 1030,
    "frequency": "Bi-weekly",
    "runDays": [2, 4, 6],
    "departureTime": "16:50",
    "arrivalTime": "10:30+1",
    "coaches": {"1A": 1, "2A": 4, "3A": 6, "SL": 4},
    "stations": [
      {"code": "NDLS", "name": "New Delhi", "lat": 28.6431, "lng": 77.1200, "km": 0, "arrivalTime": "16:50", "departureTime": "16:50", "platform": "2"},
      {"code": "MGS", "name": "Mughalserai", "lat": 25.2663, "lng": 83.1858, "km": 610, "arrivalTime": "03:00", "departureTime": "03:10", "platform": "2"},
      {"code": "PNBE", "name": "Patna Junction", "lat": 25.5941, "lng": 85.1376, "km": 985, "arrivalTime": "07:45", "departureTime": "08:00", "platform": "2"},
      {"code": "HWH", "name": "Howrah Junction", "lat": 22.5958, "lng": 88.3084, "km": 1457, "arrivalTime": "10:30", "departureTime": "10:30", "platform": "1"}
    ],
    "type": "Rajdhani",
    "class": "All Classes",
    "status": "Active"
  },
  {
    "trainNumber": "12421",
    "trainName": "Trivandrum Rajdhani",
    "zone": "Southern Railways (SR)",
    "division": "Chennai",
    "source": "New Delhi (NDLS)",
    "sourceCode": "NDLS",
    "destination": "Thiruvananthapuram (TVM)",
    "destinationCode": "TVM",
    "distance": 2832,
    "maxSpeed": 130,
    "avgSpeed": 78.0,
    "duration": 2160,
    "frequency": "Bi-weekly",
    "runDays": [1, 3],
    "departureTime": "08:00",
    "arrivalTime": "15:45+1",
    "coaches": {"1A": 1, "2A": 4, "3A": 6, "SL": 4},
    "stations": [
      {"code": "NDLS", "name": "New Delhi", "lat": 28.6431, "lng": 77.1200, "km": 0, "arrivalTime": "08:00", "departureTime": "08:00", "platform": "4"},
      {"code": "GWL", "name": "Gwalior", "lat": 26.2183, "lng": 78.1636, "km": 408, "arrivalTime": "13:20", "departureTime": "13:30", "platform": "1"},
      {"code": "JBP", "name": "Jhansi", "lat": 25.4484, "lng": 78.5685, "km": 571, "arrivalTime": "16:15", "departureTime": "16:30", "platform": "3"},
      {"code": "BPL", "name": "Bhopal Junction", "lat": 23.1815, "lng": 77.4131, "km": 961, "arrivalTime": "02:00", "departureTime": "02:15", "platform": "2"},
      {"code": "NGP", "name": "Nagpur Junction", "lat": 21.1458, "lng": 79.0882, "km": 1388, "arrivalTime": "10:00", "departureTime": "10:15", "platform": "1"},
      {"code": "SC", "name": "Secunderabad", "lat": 17.3850, "lng": 78.4867, "km": 1861, "arrivalTime": "18:20", "departureTime": "18:45", "platform": "3"},
      {"code": "TVM", "name": "Thiruvananthapuram", "lat": 8.4917, "lng": 76.9271, "km": 2832, "arrivalTime": "15:45", "departureTime": "15:45", "platform": "2"}
    ],
    "type": "Rajdhani",
    "class": "All Classes",
    "status": "Active"
  },
  {
    "trainNumber": "12625",
    "trainName": "Kerala Express",
    "zone": "Southern Railways (SR)",
    "division": "Chennai",
    "source": "New Delhi (NDLS)",
    "sourceCode": "NDLS",
    "destination": "Thiruvananthapuram Central (TVC)",
    "destinationCode": "TVC",
    "distance": 2832,
    "maxSpeed": 120,
    "avgSpeed": 63.0,
    "duration": 2700,
    "frequency": "Bi-weekly",
    "runDays": [2, 5],
    "departureTime": "19:50",
    "arrivalTime": "12:30+2",
    "coaches": {"1A": 1, "2A": 3, "3A": 6, "SL": 5, "UR": 2},
    "stations": [
      {"code": "NDLS", "name": "New Delhi", "lat": 28.6431, "lng": 77.1200, "km": 0, "arrivalTime": "19:50", "departureTime": "19:50", "platform": "8"},
      {"code": "MBG", "name": "Mathura", "lat": 27.4924, "lng": 77.6737, "km": 58, "arrivalTime": "21:15", "departureTime": "21:20", "platform": "2"},
      {"code": "AGC", "name": "Agra City", "lat": 27.0238, "lng": 78.1854, "km": 93, "arrivalTime": "21:50", "departureTime": "21:55", "platform": "1"},
      {"code": "NGP", "name": "Nagpur Junction", "lat": 21.1458, "lng": 79.0882, "km": 1388, "arrivalTime": "15:30", "departureTime": "15:45", "platform": "4"},
      {"code": "SC", "name": "Secunderabad", "lat": 17.3850, "lng": 78.4867, "km": 1861, "arrivalTime": "23:45", "departureTime": "00:10+1", "platform": "2"},
      {"code": "TVC", "name": "Thiruvananthapuram Central", "lat": 8.4917, "lng": 76.9271, "km": 2832, "arrivalTime": "12:30", "departureTime": "12:30", "platform": "1"}
    ],
    "type": "Express",
    "class": "All Classes",
    "status": "Active"
  },
  {
    "trainNumber": "13005",
    "trainName": "Sealdah Rajdhani",
    "zone": "Eastern Railways (ER)",
    "division": "Howrah",
    "source": "New Delhi (NDLS)",
    "sourceCode": "NDLS",
    "destination": "Sealdah (SDAH)",
    "destinationCode": "SDAH",
    "distance": 1445,
    "maxSpeed": 130,
    "avgSpeed": 85.0,
    "duration": 1020,
    "frequency": "Bi-weekly",
    "runDays": [2, 5],
    "departureTime": "17:15",
    "arrivalTime": "10:00+1",
    "coaches": {"1A": 1, "2A": 4, "3A": 6, "SL": 4},
    "stations": [
      {"code": "NDLS", "name": "New Delhi", "lat": 28.6431, "lng": 77.1200, "km": 0, "arrivalTime": "17:15", "departureTime": "17:15", "platform": "3"},
      {"code": "ALD", "name": "Allahabad", "lat": 25.4268, "lng": 81.8469, "km": 460, "arrivalTime": "23:30", "departureTime": "23:45", "platform": "1"},
      {"code": "PNBE", "name": "Patna Junction", "lat": 25.5941, "lng": 85.1376, "km": 985, "arrivalTime": "07:20", "departureTime": "07:35", "platform": "3"},
      {"code": "SDAH", "name": "Sealdah", "lat": 22.5527, "lng": 88.3618, "km": 1445, "arrivalTime": "10:00", "departureTime": "10:00", "platform": "2"}
    ],
    "type": "Rajdhani",
    "class": "All Classes",
    "status": "Active"
  },
  {
    "trainNumber": "19005",
    "trainName": "Dehradun Express (via Rampur)",
    "zone": "Northern Railways (NR)",
    "division": "Delhi",
    "source": "New Delhi (NDLS)",
    "sourceCode": "NDLS",
    "destination": "Dehradun (DDU)",
    "destinationCode": "DDU",
    "distance": 242,
    "maxSpeed": 110,
    "avgSpeed": 60.5,
    "duration": 240,
    "frequency": "Daily",
    "runDays": [1, 2, 3, 4, 5, 6, 7],
    "departureTime": "21:55",
    "arrivalTime": "06:05+1",
    "coaches": {"2A": 2, "3A": 4, "SL": 4, "UR": 1},
    "stations": [
      {"code": "NDLS", "name": "New Delhi", "lat": 28.6431, "lng": 77.1200, "km": 0, "arrivalTime": "21:55", "departureTime": "21:55", "platform": "10"},
      {"code": "SMN", "name": "Samaun", "lat": 29.2333, "lng": 77.2500, "km": 42, "arrivalTime": "23:00", "departureTime": "23:05", "platform": "1"},
      {"code": "RMP", "name": "Rampur", "lat": 29.4181, "lng": 77.6363, "km": 94, "arrivalTime": "00:20", "departureTime": "00:25", "platform": "2"},
      {"code": "HERBR", "name": "Herbertpur", "lat": 30.0333, "lng": 77.8333, "km": 173, "arrivalTime": "03:45", "departureTime": "03:50", "platform": "1"},
      {"code": "DDU", "name": "Dehradun", "lat": 30.3268, "lng": 78.0351, "km": 242, "arrivalTime": "06:05", "departureTime": "06:05", "platform": "3"}
    ],
    "type": "Express",
    "class": "All Classes",
    "status": "Active"
  },
  {
    "trainNumber": "12031",
    "trainName": "Lucknow Mail",
    "zone": "Northern Railways (NR)",
    "division": "Delhi",
    "source": "New Delhi (NDLS)",
    "sourceCode": "NDLS",
    "destination": "Lucknow Central (LKO)",
    "destinationCode": "LKO",
    "distance": 507,
    "maxSpeed": 110,
    "avgSpeed": 72.4,
    "duration": 420,
    "frequency": "Daily",
    "runDays": [1, 2, 3, 4, 5, 6, 7],
    "departureTime": "20:20",
    "arrivalTime": "08:25+1",
    "coaches": {"1A": 1, "2A": 2, "3A": 4, "SL": 4, "UR": 1},
    "stations": [
      {"code": "NDLS", "name": "New Delhi", "lat": 28.6431, "lng": 77.1200, "km": 0, "arrivalTime": "20:20", "departureTime": "20:20", "platform": "14"},
      {"code": "MBG", "name": "Mathura", "lat": 27.4924, "lng": 77.6737, "km": 58, "arrivalTime": "21:45", "departureTime": "21:50", "platform": "4"},
      {"code": "ALD", "name": "Allahabad", "lat": 25.4268, "lng": 81.8469, "km": 459, "arrivalTime": "04:10", "departureTime": "04:25", "platform": "3"},
      {"code": "LKO", "name": "Lucknow Central", "lat": 26.8467, "lng": 80.9462, "km": 507, "arrivalTime": "08:25", "departureTime": "08:25", "platform": "1"}
    ],
    "type": "Mail",
    "class": "All Classes",
    "status": "Active"
  },
  {
    "trainNumber": "12273",
    "trainName": "Bhopal Express",
    "zone": "Central Railways (CR)",
    "division": "Bhopal",
    "source": "New Delhi (NDLS)",
    "sourceCode": "NDLS",
    "destination": "Bhopal Junction (BPL)",
    "destinationCode": "BPL",
    "distance": 672,
    "maxSpeed": 110,
    "avgSpeed": 75.4,
    "duration": 535,
    "frequency": "Daily",
    "runDays": [1, 2, 3, 4, 5, 6, 7],
    "departureTime": "06:50",
    "arrivalTime": "18:45",
    "coaches": {"2A": 2, "3A": 4, "SL": 4, "UR": 1},
    "stations": [
      {"code": "NDLS", "name": "New Delhi", "lat": 28.6431, "lng": 77.1200, "km": 0, "arrivalTime": "06:50", "departureTime": "06:50", "platform": "9"},
      {"code": "ALD", "name": "Allahabad", "lat": 25.4268, "lng": 81.8469, "km": 460, "arrivalTime": "12:25", "departureTime": "12:35", "platform": "2"},
      {"code": "ITJ", "name": "Itarsi Junction", "lat": 22.1804, "lng": 77.6819, "km": 580, "arrivalTime": "17:10", "departureTime": "17:20", "platform": "1"},
      {"code": "BPL", "name": "Bhopal Junction", "lat": 23.1815, "lng": 77.4131, "km": 672, "arrivalTime": "18:45", "departureTime": "18:45", "platform": "3"}
    ],
    "type": "Express",
    "class": "All Classes",
    "status": "Active"
  },
  {
    "trainNumber": "12911",
    "trainName": "Gitanjali Express",
    "zone": "Eastern Railways (ER)",
    "division": "Howrah",
    "source": "New Delhi (NDLS)",
    "sourceCode": "NDLS",
    "destination": "Howrah Junction (HWH)",
    "destinationCode": "HWH",
    "distance": 1457,
    "maxSpeed": 120,
    "avgSpeed": 72.8,
    "duration": 1200,
    "frequency": "Bi-weekly",
    "runDays": [3, 5],
    "departureTime": "21:40",
    "arrivalTime": "16:00+1",
    "coaches": {"1A": 1, "2A": 3, "3A": 5, "SL": 4, "UR": 2},
    "stations": [
      {"code": "NDLS", "name": "New Delhi", "lat": 28.6431, "lng": 77.1200, "km": 0, "arrivalTime": "21:40", "departureTime": "21:40", "platform": "5"},
      {"code": "MTJ", "name": "Mathura Junction", "lat": 27.4924, "lng": 77.6737, "km": 58, "arrivalTime": "23:00", "departureTime": "23:05", "platform": "1"},
      {"code": "ALD", "name": "Allahabad", "lat": 25.4268, "lng": 81.8469, "km": 460, "arrivalTime": "04:45", "departureTime": "05:00", "platform": "4"},
      {"code": "PNBE", "name": "Patna Junction", "lat": 25.5941, "lng": 85.1376, "km": 985, "arrivalTime": "12:20", "departureTime": "12:35", "platform": "2"},
      {"code": "HWH", "name": "Howrah Junction", "lat": 22.5958, "lng": 88.3084, "km": 1457, "arrivalTime": "16:00", "departureTime": "16:00", "platform": "2"}
    ],
    "type": "Express",
    "class": "All Classes",
    "status": "Active"
  },
  {
    "trainNumber": "12231",
    "trainName": "Varanasi Express",
    "zone": "Northern Railways (NR)",
    "division": "Delhi",
    "source": "New Delhi (NDLS)",
    "sourceCode": "NDLS",
    "destination": "Varanasi Junction (BSB)",
    "destinationCode": "BSB",
    "distance": 786,
    "maxSpeed": 110,
    "avgSpeed": 71.4,
    "duration": 660,
    "frequency": "Bi-weekly",
    "runDays": [1, 4],
    "departureTime": "20:40",
    "arrivalTime": "08:00+1",
    "coaches": {"1A": 1, "2A": 2, "3A": 4, "SL": 4, "UR": 1},
    "stations": [
      {"code": "NDLS", "name": "New Delhi", "lat": 28.6431, "lng": 77.1200, "km": 0, "arrivalTime": "20:40", "departureTime": "20:40", "platform": "18"},
      {"code": "MBG", "name": "Mathura", "lat": 27.4924, "lng": 77.6737, "km": 58, "arrivalTime": "22:05", "departureTime": "22:10", "platform": "3"},
      {"code": "ALD", "name": "Allahabad", "lat": 25.4268, "lng": 81.8469, "km": 460, "arrivalTime": "03:55", "departureTime": "04:10", "platform": "1"},
      {"code": "BSB", "name": "Varanasi Junction", "lat": 25.3235, "lng": 82.9063, "km": 786, "arrivalTime": "08:00", "departureTime": "08:00", "platform": "4"}
    ],
    "type": "Express",
    "class": "All Classes",
    "status": "Active"
  },
  {
    "trainNumber": "16093",
    "trainName": "Charminar Express",
    "zone": "South Central Railways (SCR)",
    "division": "Secunderabad",
    "source": "New Delhi (NDLS)",
    "sourceCode": "NDLS",
    "destination": "Hyderabad Decan (HYD)",
    "destinationCode": "HYD",
    "distance": 1900,
    "maxSpeed": 110,
    "avgSpeed": 62.5,
    "duration": 1830,
    "frequency": "Bi-weekly",
    "runDays": [2, 6],
    "departureTime": "20:05",
    "arrivalTime": "17:45+1",
    "coaches": {"1A": 1, "2A": 2, "3A": 5, "SL": 4, "UR": 2},
    "stations": [
      {"code": "NDLS", "name": "New Delhi", "lat": 28.6431, "lng": 77.1200, "km": 0, "arrivalTime": "20:05", "departureTime": "20:05", "platform": "11"},
      {"code": "JBP", "name": "Jhansi", "lat": 25.4484, "lng": 78.5685, "km": 248, "arrivalTime": "00:50", "departureTime": "01:05", "platform": "2"},
      {"code": "ITJ", "name": "Itarsi Junction", "lat": 22.1804, "lng": 77.6819, "km": 410, "arrivalTime": "03:45", "departureTime": "04:00", "platform": "2"},
      {"code": "NGP", "name": "Nagpur Junction", "lat": 21.1458, "lng": 79.0882, "km": 837, "arrivalTime": "12:50", "departureTime": "13:10", "platform": "2"},
      {"code": "SC", "name": "Secunderabad", "lat": 17.3850, "lng": 78.4867, "km": 1378, "arrivalTime": "21:00", "departureTime": "21:20", "platform": "1"},
      {"code": "HYD", "name": "Hyderabad Decan", "lat": 17.3850, "lng": 78.4867, "km": 1900, "arrivalTime": "17:45", "departureTime": "17:45", "platform": "3"}
    ],
    "type": "Express",
    "class": "All Classes",
    "status": "Active"
  },
  {
    "trainNumber": "12706",
    "trainName": "Chennai Express",
    "zone": "Southern Railways (SR)",
    "division": "Chennai",
    "source": "New Delhi (NDLS)",
    "sourceCode": "NDLS",
    "destination": "Chennai Central (MAS)",
    "destinationCode": "MAS",
    "distance": 2240,
    "maxSpeed": 120,
    "avgSpeed": 63.5,
    "duration": 2120,
    "frequency": "Bi-weekly",
    "runDays": [3, 6],
    "departureTime": "13:15",
    "arrivalTime": "13:00+2",
    "coaches": {"1A": 1, "2A": 3, "3A": 6, "SL": 5, "UR": 2},
    "stations": [
      {"code": "NDLS", "name": "New Delhi", "lat": 28.6431, "lng": 77.1200, "km": 0, "arrivalTime": "13:15", "departureTime": "13:15", "platform": "13"},
      {"code": "ACH", "name": "Agra Cantt", "lat": 27.1535, "lng": 77.8369, "km": 94, "arrivalTime": "14:35", "departureTime": "14:45", "platform": "1"},
      {"code": "GWL", "name": "Gwalior", "lat": 26.2183, "lng": 78.1636, "km": 361, "arrivalTime": "18:50", "departureTime": "19:10", "platform": "2"},
      {"code": "JBP", "name": "Jhansi", "lat": 25.4484, "lng": 78.5685, "km": 524, "arrivalTime": "21:15", "departureTime": "21:30", "platform": "1"},
      {"code": "BPL", "name": "Bhopal Junction", "lat": 23.1815, "lng": 77.4131, "km": 913, "arrivalTime": "06:00", "departureTime": "06:15", "platform": "1"},
      {"code": "NGP", "name": "Nagpur Junction", "lat": 21.1458, "lng": 79.0882, "km": 1340, "arrivalTime": "14:00", "departureTime": "14:20", "platform": "3"},
      {"code": "SC", "name": "Secunderabad", "lat": 17.3850, "lng": 78.4867, "km": 1830, "arrivalTime": "22:30", "departureTime": "23:00", "platform": "2"},
      {"code": "MAS", "name": "Chennai Central", "lat": 13.0827, "lng": 80.2707, "km": 2240, "arrivalTime": "13:00", "departureTime": "13:00", "platform": "4"}
    ],
    "type": "Express",
    "class": "All Classes",
    "status": "Active"
  },
  {
    "trainNumber": "12809",
    "trainName": "Gujarat Mail",
    "zone": "Western Railways (WR)",
    "division": "Mumbai",
    "source": "New Delhi (NDLS)",
    "sourceCode": "NDLS",
    "destination": "Ahmednagar Junction (ANG)",
    "destinationCode": "ANG",
    "distance": 1161,
    "maxSpeed": 110,
    "avgSpeed": 69.2,
    "duration": 1005,
    "frequency": "Tri-weekly",
    "runDays": [1, 3, 5],
    "departureTime": "20:50",
    "arrivalTime": "08:15+1",
    "coaches": {"1A": 1, "2A": 3, "3A": 5, "SL": 4, "UR": 2},
    "stations": [
      {"code": "NDLS", "name": "New Delhi", "lat": 28.6431, "lng": 77.1200, "km": 0, "arrivalTime": "20:50", "departureTime": "20:50", "platform": "6"},
      {"code": "MBG", "name": "Mathura", "lat": 27.4924, "lng": 77.6737, "km": 58, "arrivalTime": "22:15", "departureTime": "22:20", "platform": "2"},
      {"code": "ALC", "name": "Ajnala", "lat": 26.2000, "lng": 78.3333, "km": 360, "arrivalTime": "04:00", "departureTime": "04:10", "platform": "1"},
      {"code": "ANG", "name": "Ahmednagar Junction", "lat": 19.0944, "lng": 75.3309, "km": 1161, "arrivalTime": "08:15", "departureTime": "08:15", "platform": "2"}
    ],
    "type": "Mail",
    "class": "All Classes",
    "status": "Active"
  },
  {
    "trainNumber": "16504",
    "trainName": "Visakhapatnam Express",
    "zone": "South Central Railways (SCR)",
    "division": "Hyderabad",
    "source": "New Delhi (NDLS)",
    "sourceCode": "NDLS",
    "destination": "Visakhapatnam (VSKP)",
    "destinationCode": "VSKP",
    "distance": 2132,
    "maxSpeed": 110,
    "avgSpeed": 66.6,
    "duration": 1920,
    "frequency": "Bi-weekly",
    "runDays": [1, 4],
    "departureTime": "20:30",
    "arrivalTime": "19:30+1",
    "coaches": {"1A": 1, "2A": 2, "3A": 5, "SL": 4, "UR": 2},
    "stations": [
      {"code": "NDLS", "name": "New Delhi", "lat": 28.6431, "lng": 77.1200, "km": 0, "arrivalTime": "20:30", "departureTime": "20:30", "platform": "12"},
      {"code": "JBP", "name": "Jhansi", "lat": 25.4484, "lng": 78.5685, "km": 248, "arrivalTime": "01:15", "departureTime": "01:30", "platform": "1"},
      {"code": "NGP", "name": "Nagpur Junction", "lat": 21.1458, "lng": 79.0882, "km": 837, "arrivalTime": "13:30", "departureTime": "13:50", "platform": "1"},
      {"code": "SC", "name": "Secunderabad", "lat": 17.3850, "lng": 78.4867, "km": 1378, "arrivalTime": "21:45", "departureTime": "22:10", "platform": "4"},
      {"code": "VSKP", "name": "Visakhapatnam", "lat": 17.6869, "lng": 83.2185, "km": 2132, "arrivalTime": "19:30", "departureTime": "19:30", "platform": "1"}
    ],
    "type": "Express",
    "class": "All Classes",
    "status": "Active"
  },
  {
    "trainNumber": "11015",
    "trainName": "Konkan Kanya Express",
    "zone": "Southern Railways (SR)",
    "division": "Konkan",
    "source": "Mumbai Central (MMCT)",
    "sourceCode": "MMCT",
    "destination": "Thiruvananthapuram (TVM)",
    "destinationCode": "TVM",
    "distance": 1932,
    "maxSpeed": 110,
    "avgSpeed": 65.0,
    "duration": 1785,
    "frequency": "Bi-weekly",
    "runDays": [2, 5],
    "departureTime": "08:00",
    "arrivalTime": "17:30+1",
    "coaches": {"1A": 1, "2A": 2, "3A": 5, "SL": 4, "UR": 2},
    "stations": [
      {"code": "MMCT", "name": "Mumbai Central", "lat": 18.9676, "lng": 72.8194, "km": 0, "arrivalTime": "08:00", "departureTime": "08:00", "platform": "1"},
      {"code": "VR", "name": "Virar", "lat": 19.5438, "lng": 72.8011, "km": 49, "arrivalTime": "08:45", "departureTime": "08:50", "platform": "2"},
      {"code": "VAPI", "name": "Vapi", "lat": 19.9945, "lng": 72.9050, "km": 113, "arrivalTime": "10:00", "departureTime": "10:10", "platform": "1"},
      {"code": "BRC", "name": "Baroda", "lat": 22.3039, "lng": 73.1842, "km": 190, "arrivalTime": "12:20", "departureTime": "12:35", "platform": "2"},
      {"code": "TVM", "name": "Thiruvananthapuram", "lat": 8.4917, "lng": 76.9271, "km": 1932, "arrivalTime": "17:30", "departureTime": "17:30", "platform": "1"}
    ],
    "type": "Express",
    "class": "All Classes",
    "status": "Active"
  },
  {
    "trainNumber": "12137",
    "trainName": "Punjab Mail",
    "zone": "Northern Railways (NR)",
    "division": "Delhi",
    "source": "New Delhi (NDLS)",
    "sourceCode": "NDLS",
    "destination": "Amritsar Junction (ASR)",
    "destinationCode": "ASR",
    "distance": 455,
    "maxSpeed": 110,
    "avgSpeed": 75.8,
    "duration": 360,
    "frequency": "Daily",
    "runDays": [1, 2, 3, 4, 5, 6],
    "departureTime": "19:05",
    "arrivalTime": "06:25+1",
    "coaches": {"1A": 1, "2A": 2, "3A": 4, "SL": 4, "UR": 1},
    "stations": [
      {"code": "NDLS", "name": "New Delhi", "lat": 28.6431, "lng": 77.1200, "km": 0, "arrivalTime": "19:05", "departureTime": "19:05", "platform": "19"},
      {"code": "AMBLA", "name": "Ambala Cantonment", "lat": 30.3806, "lng": 76.7724, "km": 165, "arrivalTime": "21:50", "departureTime": "21:55", "platform": "1"},
      {"code": "LDH", "name": "Ludhiana Junction", "lat": 30.9010, "lng": 75.8573, "km": 310, "arrivalTime": "00:45", "departureTime": "00:50", "platform": "2"},
      {"code": "ASR", "name": "Amritsar Junction", "lat": 31.6340, "lng": 74.8723, "km": 455, "arrivalTime": "06:25", "departureTime": "06:25", "platform": "1"}
    ],
    "type": "Mail",
    "class": "All Classes",
    "status": "Active"
  },
  {
    "trainNumber": "12005",
    "trainName": "Shatabdi Express",
    "zone": "Northern Railways (NR)",
    "division": "Delhi",
    "source": "New Delhi (NDLS)",
    "sourceCode": "NDLS",
    "destination": "Amritsar Junction (ASR)",
    "destinationCode": "ASR",
    "distance": 455,
    "maxSpeed": 160,
    "avgSpeed": 101.1,
    "duration": 270,
    "frequency": "Daily",
    "runDays": [1, 2, 3, 4, 5, 6, 7],
    "departureTime": "06:40",
    "arrivalTime": "10:50",
    "coaches": {"Chair Car": 10, "Exec Chair": 2},
    "stations": [
      {"code": "NDLS", "name": "New Delhi", "lat": 28.6431, "lng": 77.1200, "km": 0, "arrivalTime": "06:40", "departureTime": "06:40", "platform": "17"},
      {"code": "AMBLA", "name": "Ambala Cantonment", "lat": 30.3806, "lng": 76.7724, "km": 165, "arrivalTime": "08:45", "departureTime": "08:50", "platform": "2"},
      {"code": "LDH", "name": "Ludhiana Junction", "lat": 30.9010, "lng": 75.8573, "km": 310, "arrivalTime": "10:10", "departureTime": "10:15", "platform": "1"},
      {"code": "ASR", "name": "Amritsar Junction", "lat": 31.6340, "lng": 74.8723, "km": 455, "arrivalTime": "10:50", "departureTime": "10:50", "platform": "3"}
    ],
    "type": "High-Speed",
    "class": "Chair Car Only",
    "status": "Active"
  },
  {
    "trainNumber": "12556",
    "trainName": "Bengaluru Express",
    "zone": "Southern Railways (SR)",
    "division": "Chennai",
    "source": "Chennai Central (MAS)",
    "sourceCode": "MAS",
    "destination": "Bengaluru City Junction (SBC)",
    "destinationCode": "SBC",
    "distance": 348,
    "maxSpeed": 110,
    "avgSpeed": 78.2,
    "duration": 267,
    "frequency": "Daily",
    "runDays": [1, 2, 3, 4, 5, 6, 7],
    "departureTime": "18:30",
    "arrivalTime": "22:37",
    "coaches": {"1A": 1, "2A": 2, "3A": 4, "SL": 3, "UR": 1},
    "stations": [
      {"code": "MAS", "name": "Chennai Central", "lat": 13.0827, "lng": 80.2707, "km": 0, "arrivalTime": "18:30", "departureTime": "18:30", "platform": "1"},
      {"code": "KPD", "name": "Kanchipuram", "lat": 12.8342, "lng": 79.7029, "km": 75, "arrivalTime": "19:35", "departureTime": "19:40", "platform": "1"},
      {"code": "PUDI", "name": "Pudi", "lat": 12.5500, "lng": 79.6000, "km": 130, "arrivalTime": "20:25", "departureTime": "20:30", "platform": "2"},
      {"code": "SBC", "name": "Bengaluru City Junction", "lat": 12.9716, "lng": 77.5946, "km": 348, "arrivalTime": "22:37", "departureTime": "22:37", "platform": "1"}
    ],
    "type": "Express",
    "class": "All Classes",
    "status": "Active"
  },
  {
    "trainNumber": "12655",
    "trainName": "Mysore Express",
    "zone": "Southern Railways (SR)",
    "division": "Chennai",
    "source": "Chennai Central (MAS)",
    "sourceCode": "MAS",
    "destination": "Mysore Junction (MYS)",
    "destinationCode": "MYS",
    "distance": 378,
    "maxSpeed": 110,
    "avgSpeed": 75.6,
    "duration": 300,
    "frequency": "Daily",
    "runDays": [1, 2, 3, 4, 5, 6, 7],
    "departureTime": "21:00",
    "arrivalTime": "02:00+1",
    "coaches": {"1A": 1, "2A": 2, "3A": 4, "SL": 3, "UR": 1},
    "stations": [
      {"code": "MAS", "name": "Chennai Central", "lat": 13.0827, "lng": 80.2707, "km": 0, "arrivalTime": "21:00", "departureTime": "21:00", "platform": "2"},
      {"code": "KSTM", "name": "Kstm", "lat": 13.0327, "lng": 80.2600, "km": 10, "arrivalTime": "21:20", "departureTime": "21:25", "platform": "1"},
      {"code": "JTJ", "name": "Jolarpettai Junction", "lat": 12.2100, "lng": 79.7400, "km": 145, "arrivalTime": "23:10", "departureTime": "23:20", "platform": "1"},
      {"code": "BNGL", "name": "Bengaluru East", "lat": 13.0500, "lng": 77.6300, "km": 260, "arrivalTime": "01:15", "departureTime": "01:25", "platform": "2"},
      {"code": "MYS", "name": "Mysore Junction", "lat": 12.2958, "lng": 76.6394, "km": 378, "arrivalTime": "02:00", "departureTime": "02:00", "platform": "1"}
    ],
    "type": "Express",
    "class": "All Classes",
    "status": "Active"
  },
  {
    "trainNumber": "11013",
    "trainName": "Kerala Sampark Kranti Express",
    "zone": "Southern Railways (SR)",
    "division": "Thiruvananthapuram",
    "source": "Thiruvananthapuram (TVM)",
    "sourceCode": "TVM",
    "destination": "Mumbai Central (MMCT)",
    "destinationCode": "MMCT",
    "distance": 1932,
    "maxSpeed": 110,
    "avgSpeed": 64.4,
    "duration": 1800,
    "frequency": "Bi-weekly",
    "runDays": [1, 4],
    "departureTime": "16:30",
    "arrivalTime": "02:30+2",
    "coaches": {"1A": 1, "2A": 3, "3A": 5, "SL": 4, "UR": 2},
    "stations": [
      {"code": "TVM", "name": "Thiruvananthapuram", "lat": 8.4917, "lng": 76.9271, "km": 0, "arrivalTime": "16:30", "departureTime": "16:30", "platform": "2"},
      {"code": "KYJ", "name": "Kayamkulam Junction", "lat": 9.2842, "lng": 76.3389, "km": 75, "arrivalTime": "17:40", "departureTime": "17:50", "platform": "1"},
      {"code": "ALLP", "name": "Alappuzha", "lat": 9.4981, "lng": 76.3388, "km": 98, "arrivalTime": "18:30", "departureTime": "18:40", "platform": "2"},
      {"code": "ERS", "name": "Ernakulam Junction", "lat": 9.9673, "lng": 76.2559, "km": 226, "arrivalTime": "21:00", "departureTime": "21:30", "platform": "1"},
      {"code": "MMCT", "name": "Mumbai Central", "lat": 18.9676, "lng": 72.8194, "km": 1932, "arrivalTime": "02:30", "departureTime": "02:30", "platform": "3"}
    ],
    "type": "Express",
    "class": "All Classes",
    "status": "Active"
  },
  {
    "trainNumber": "12049",
    "trainName": "Firozpur Shatabdi",
    "zone": "Northern Railways (NR)",
    "division": "Delhi",
    "source": "New Delhi (NDLS)",
    "sourceCode": "NDLS",
    "destination": "Firozpur Cantonment (FZR)",
    "destinationCode": "FZR",
    "distance": 496,
    "maxSpeed": 160,
    "avgSpeed": 102.5,
    "duration": 290,
    "frequency": "Daily",
    "runDays": [1, 2, 3, 4, 5, 6, 7],
    "departureTime": "08:50",
    "arrivalTime": "13:40",
    "coaches": {"Chair Car": 10, "Exec Chair": 2},
    "stations": [
      {"code": "NDLS", "name": "New Delhi", "lat": 28.6431, "lng": 77.1200, "km": 0, "arrivalTime": "08:50", "departureTime": "08:50", "platform": "20"},
      {"code": "AMBLA", "name": "Ambala Cantonment", "lat": 30.3806, "lng": 76.7724, "km": 165, "arrivalTime": "10:40", "departureTime": "10:45", "platform": "3"},
      {"code": "LDH", "name": "Ludhiana", "lat": 30.9010, "lng": 75.8573, "km": 310, "arrivalTime": "12:15", "departureTime": "12:20", "platform": "2"},
      {"code": "FZR", "name": "Firozpur Cantonment", "lat": 31.8187, "lng": 74.5625, "km": 496, "arrivalTime": "13:40", "departureTime": "13:40", "platform": "1"}
    ],
    "type": "High-Speed",
    "class": "Chair Car Only",
    "status": "Active"
  },
  {
    "trainNumber": "13145",
    "trainName": "Lucknow Superfast",
    "zone": "Northern Railways (NR)",
    "division": "Lucknow",
    "source": "New Delhi (NDLS)",
    "sourceCode": "NDLS",
    "destination": "Lucknow Central (LKO)",
    "destinationCode": "LKO",
    "distance": 507,
    "maxSpeed": 130,
    "avgSpeed": 84.5,
    "duration": 360,
    "frequency": "Daily",
    "runDays": [1, 2, 3, 4, 5, 6],
    "departureTime": "06:35",
    "arrivalTime": "12:35",
    "coaches": {"1A": 1, "2A": 2, "3A": 4, "SL": 3, "UR": 1},
    "stations": [
      {"code": "NDLS", "name": "New Delhi", "lat": 28.6431, "lng": 77.1200, "km": 0, "arrivalTime": "06:35", "departureTime": "06:35", "platform": "21"},
      {"code": "MBG", "name": "Mathura Junction", "lat": 27.4924, "lng": 77.6737, "km": 58, "arrivalTime": "07:40", "departureTime": "07:45", "platform": "4"},
      {"code": "AGC", "name": "Agra City", "lat": 27.0238, "lng": 78.1854, "km": 93, "arrivalTime": "08:15", "departureTime": "08:20", "platform": "2"},
      {"code": "LKO", "name": "Lucknow Central", "lat": 26.8467, "lng": 80.9462, "km": 507, "arrivalTime": "12:35", "departureTime": "12:35", "platform": "2"}
    ],
    "type": "Superfast",
    "class": "All Classes",
    "status": "Active"
  },
  {
    "trainNumber": "12789",
    "trainName": "Thanjavur Express",
    "zone": "Southern Railways (SR)",
    "division": "Trichy",
    "source": "Virudunagar (VDU)",
    "sourceCode": "VDU",
    "destination": "Thanjavur Junction (TJ)",
    "destinationCode": "TJ",
    "distance": 60,
    "maxSpeed": 100,
    "avgSpeed": 75.0,
    "duration": 48,
    "frequency": "Daily",
    "runDays": [1, 2, 3, 4, 5, 6, 7],
    "departureTime": "06:00",
    "arrivalTime": "07:48",
    "coaches": {"2A": 1, "3A": 2, "SL": 2, "UR": 1},
    "stations": [
      {"code": "VDU", "name": "Virudunagar", "lat": 9.5850, "lng": 77.9613, "km": 0, "arrivalTime": "06:00", "departureTime": "06:00", "platform": "1"},
      {"code": "TJ", "name": "Thanjavur Junction", "lat": 10.7905, "lng": 79.1379, "km": 60, "arrivalTime": "07:48", "departureTime": "07:48", "platform": "1"}
    ],
    "type": "Passenger",
    "class": "All Classes",
    "status": "Active"
  },
  {
    "trainNumber": "17310",
    "trainName": "Hirakud Express",
    "zone": "South Eastern Railways (SER)",
    "division": "Odisha",
    "source": "Raigarh (RIG)",
    "sourceCode": "RIG",
    "destination": "Cuttack Junction (CTC)",
    "destinationCode": "CTC",
    "distance": 149,
    "maxSpeed": 110,
    "avgSpeed": 74.5,
    "duration": 120,
    "frequency": "Daily",
    "runDays": [1, 2, 3, 4, 5, 6, 7],
    "departureTime": "10:15",
    "arrivalTime": "12:15",
    "coaches": {"2A": 1, "3A": 2, "SL": 2, "UR": 1},
    "stations": [
      {"code": "RIG", "name": "Raigarh", "lat": 21.8153, "lng": 83.4005, "km": 0, "arrivalTime": "10:15", "departureTime": "10:15", "platform": "1"},
      {"code": "JSG", "name": "Jamshedpur", "lat": 22.8040, "lng": 84.8230, "km": 149, "arrivalTime": "12:15", "departureTime": "12:15", "platform": "2"}
    ],
    "type": "Express",
    "class": "All Classes",
    "status": "Active"
  },
  {
    "trainNumber": "22101",
    "trainName": "Tejas Express",
    "zone": "Central Railways (CR)",
    "division": "CSMT Mumbai",
    "source": "Mumbai Central (MMCT)",
    "sourceCode": "MMCT",
    "destination": "Goa Madgaon (MAO)",
    "destinationCode": "MAO",
    "distance": 616,
    "maxSpeed": 160,
    "avgSpeed": 102.7,
    "duration": 360,
    "frequency": "Daily",
    "runDays": [1, 2, 3, 4, 5, 6, 7],
    "departureTime": "14:50",
    "arrivalTime": "20:50",
    "coaches": {"Chair Car": 8, "Exec Chair": 1},
    "stations": [
      {"code": "MMCT", "name": "Mumbai Central", "lat": 18.9676, "lng": 72.8194, "km": 0, "arrivalTime": "14:50", "departureTime": "14:50", "platform": "2"},
      {"code": "VR", "name": "Virar", "lat": 19.5438, "lng": 72.8011, "km": 49, "arrivalTime": "15:35", "departureTime": "15:40", "platform": "1"},
      {"code": "VAPI", "name": "Vapi", "lat": 19.9945, "lng": 72.9050, "km": 113, "arrivalTime": "16:50", "departureTime": "16:55", "platform": "2"},
      {"code": "MAO", "name": "Madgaon Junction", "lat": 15.2993, "lng": 73.8262, "km": 616, "arrivalTime": "20:50", "departureTime": "20:50", "platform": "1"}
    ],
    "type": "High-Speed",
    "class": "Chair Car Only",
    "status": "Active"
  },
  {
    "trainNumber": "12141",
    "trainName": "Hawrah Superfast",
    "zone": "Eastern Railways (ER)",
    "division": "Howrah",
    "source": "New Delhi (NDLS)",
    "sourceCode": "NDLS",
    "destination": "Howrah Junction (HWH)",
    "destinationCode": "HWH",
    "distance": 1457,
    "maxSpeed": 130,
    "avgSpeed": 81.1,
    "duration": 1080,
    "frequency": "Bi-weekly",
    "runDays": [2, 6],
    "departureTime": "18:30",
    "arrivalTime": "02:00+1",
    "coaches": {"1A": 1, "2A": 3, "3A": 5, "SL": 4, "UR": 2},
    "stations": [
      {"code": "NDLS", "name": "New Delhi", "lat": 28.6431, "lng": 77.1200, "km": 0, "arrivalTime": "18:30", "departureTime": "18:30", "platform": "15"},
      {"code": "MTJ", "name": "Mathura Junction", "lat": 27.4924, "lng": 77.6737, "km": 58, "arrivalTime": "19:50", "departureTime": "19:55", "platform": "3"},
      {"code": "ALD", "name": "Allahabad", "lat": 25.4268, "lng": 81.8469, "km": 460, "arrivalTime": "01:10", "departureTime": "01:20", "platform": "2"},
      {"code": "HWH", "name": "Howrah Junction", "lat": 22.5958, "lng": 88.3084, "km": 1457, "arrivalTime": "02:00", "departureTime": "02:00", "platform": "4"}
    ],
    "type": "Superfast",
    "class": "All Classes",
    "status": "Active"
  },
  {
    "trainNumber": "12723",
    "trainName": "Dakshin Sampark Kranti",
    "zone": "South Central Railways (SCR)",
    "division": "Secunderabad",
    "source": "New Delhi (NDLS)",
    "sourceCode": "NDLS",
    "destination": "Secunderabad (SC)",
    "destinationCode": "SC",
    "distance": 1378,
    "maxSpeed": 130,
    "avgSpeed": 83.0,
    "duration": 1000,
    "frequency": "Tri-weekly",
    "runDays": [1, 3, 6],
    "departureTime": "06:25",
    "arrivalTime": "22:25",
    "coaches": {"1A": 1, "2A": 3, "3A": 5, "SL": 3, "UR": 1},
    "stations": [
      {"code": "NDLS", "name": "New Delhi", "lat": 28.6431, "lng": 77.1200, "km": 0, "arrivalTime": "06:25", "departureTime": "06:25", "platform": "22"},
      {"code": "ALD", "name": "Allahabad", "lat": 25.4268, "lng": 81.8469, "km": 460, "arrivalTime": "13:10", "departureTime": "13:25", "platform": "3"},
      {"code": "ITJ", "name": "Itarsi Junction", "lat": 22.1804, "lng": 77.6819, "km": 637, "arrivalTime": "18:20", "departureTime": "18:35", "platform": "1"},
      {"code": "SC", "name": "Secunderabad", "lat": 17.3850, "lng": 78.4867, "km": 1378, "arrivalTime": "22:25", "departureTime": "22:25", "platform": "3"}
    ],
    "type": "Sampark Kranti",
    "class": "All Classes",
    "status": "Active"
  },
  {
    "trainNumber": "12811",
    "trainName": "Ahmedabad Mail",
    "zone": "Western Railways (WR)",
    "division": "Ahmedabad",
    "source": "New Delhi (NDLS)",
    "sourceCode": "NDLS",
    "destination": "Ahmedabad Junction (ADI)",
    "destinationCode": "ADI",
    "distance": 913,
    "maxSpeed": 110,
    "avgSpeed": 71.7,
    "duration": 765,
    "frequency": "Daily",
    "runDays": [1, 2, 3, 4, 5, 6, 7],
    "departureTime": "02:45",
    "arrivalTime": "15:30",
    "coaches": {"1A": 1, "2A": 2, "3A": 4, "SL": 4, "UR": 1},
    "stations": [
      {"code": "NDLS", "name": "New Delhi", "lat": 28.6431, "lng": 77.1200, "km": 0, "arrivalTime": "02:45", "departureTime": "02:45", "platform": "1"},
      {"code": "MBG", "name": "Mathura Junction", "lat": 27.4924, "lng": 77.6737, "km": 58, "arrivalTime": "04:10", "departureTime": "04:15", "platform": "1"},
      {"code": "ALC", "name": "Ajnala", "lat": 26.2000, "lng": 78.3333, "km": 360, "arrivalTime": "09:30", "departureTime": "09:40", "platform": "2"},
      {"code": "ADI", "name": "Ahmedabad Junction", "lat": 23.0225, "lng": 72.6417, "km": 913, "arrivalTime": "15:30", "departureTime": "15:30", "platform": "2"}
    ],
    "type": "Mail",
    "class": "All Classes",
    "status": "Active"
  },
  {
    "trainNumber": "12777",
    "trainName": "Hansati Express",
    "zone": "South Central Railways (SCR)",
    "division": "Secunderabad",
    "source": "Hyderabad Decan (HYD)",
    "sourceCode": "HYD",
    "destination": "Secunderabad Junction (SC)",
    "destinationCode": "SC",
    "distance": 72,
    "maxSpeed": 110,
    "avgSpeed": 90.0,
    "duration": 48,
    "frequency": "Daily",
    "runDays": [1, 2, 3, 4, 5, 6, 7],
    "departureTime": "09:00",
    "arrivalTime": "10:48",
    "coaches": {"1A": 1, "2A": 1, "3A": 2, "SL": 2},
    "stations": [
      {"code": "HYD", "name": "Hyderabad Decan", "lat": 17.3850, "lng": 78.4867, "km": 0, "arrivalTime": "09:00", "departureTime": "09:00", "platform": "1"},
      {"code": "SC", "name": "Secunderabad Junction", "lat": 17.3850, "lng": 78.4867, "km": 72, "arrivalTime": "10:48", "departureTime": "10:48", "platform": "3"}
    ],
    "type": "Express",
    "class": "All Classes",
    "status": "Active"
  },
  {
    "trainNumber": "12659",
    "trainName": "Chennai Bangalore Express",
    "zone": "Southern Railways (SR)",
    "division": "Chennai",
    "source": "Chennai Central (MAS)",
    "sourceCode": "MAS",
    "destination": "Bengaluru City Junction (SBC)",
    "destinationCode": "SBC",
    "distance": 348,
    "maxSpeed": 120,
    "avgSpeed": 87.0,
    "duration": 240,
    "frequency": "Daily",
    "runDays": [1, 2, 3, 4, 5, 6, 7],
    "departureTime": "22:01",
    "arrivalTime": "02:01+1",
    "coaches": {"1A": 1, "2A": 2, "3A": 3, "SL": 2, "UR": 1},
    "stations": [
      {"code": "MAS", "name": "Chennai Central", "lat": 13.0827, "lng": 80.2707, "km": 0, "arrivalTime": "22:01", "departureTime": "22:01", "platform": "3"},
      {"code": "KSTM", "name": "Kstm", "lat": 13.0327, "lng": 80.2600, "km": 10, "arrivalTime": "22:20", "departureTime": "22:25", "platform": "2"},
      {"code": "JTJ", "name": "Jolarpettai Junction", "lat": 12.2100, "lng": 79.7400, "km": 145, "arrivalTime": "00:10", "departureTime": "00:20", "platform": "2"},
      {"code": "SBC", "name": "Bengaluru City Junction", "lat": 12.9716, "lng": 77.5946, "km": 348, "arrivalTime": "02:01", "departureTime": "02:01", "platform": "2"}
    ],
    "type": "Express",
    "class": "All Classes",
    "status": "Active"
  }
]
